{
  "hotels": [
              {
                "id": 1,
                "name": "The Ritz-Carlton Pune",
                "latitude": 18.5642,
                "longitude": 73.9132
              },
              {
                "id": 2,
                "name": "JW Marriott Hotel Pune",
                "latitude": 18.5593,
                "longitude": 73.7771
              },
              {
                "id": 3,
                "name": "The Corinthians Resort & Club",
                "latitude": 18.4309,
                "longitude": 73.7531
              },
              {
                "id": 4,
                "name": "Conrad Pune",
                "latitude": 18.5314,
                "longitude": 73.9227
              },
              {
                "id": 5,
                "name": "Hyatt Regency Pune",
                "latitude": 18.5679,
                "longitude": 73.9143
              },
              {
                "id": 6,
                "name": "The Westin Pune Koregaon Park",
                "latitude": 18.5362,
                "longitude": 73.8958
              },
              {
                "id": 7,
                "name": "Radisson Blu Hotel Pune Kharadi",
                "latitude": 18.5515,
                "longitude": 73.9480
              },
              {
                "id": 8,
                "name": "Marriott Suites Pune",
                "latitude": 18.5593,
                "longitude": 73.7771
              },
              {
                "id": 9,
                "name": "Sheraton Grand Pune Bund Garden Hotel",
                "latitude": 18.5314,
                "longitude": 73.8803
              },
              {
                "id": 10,
                "name": "Novotel Pune Viman Nagar Road",
                "latitude": 18.5679,
                "longitude": 73.9143
              },
              {
                "id": 11,
                "name": "Fairfield by Marriott Pune Kharadi",
                "latitude": 18.5515,
                "longitude": 73.9480
              },
              {
                "id": 12,
                "name": "Holiday Inn Pune Hinjewadi",
                "latitude": 18.5989,
                "longitude": 73.7386
              },
              {
                "id": 13,
                "name": "Four Points by Sheraton Pune Viman Nagar",
                "latitude": 18.5679,
                "longitude": 73.9143
              },
              {
                "id": 14,
                "name": "Courtyard by Marriott Pune Hinjewadi",
                "latitude": 18.5989,
                "longitude": 73.7386
              },
              {
                "id": 15,
                "name": "The Orchid Hotel Pune",
                "latitude": 18.5610,
                "longitude": 73.9070
              },
              {
                "id": 16,
                "name": "Lemon Tree Hotel Pune",
                "latitude": 18.5679,
                "longitude": 73.9143
              },
              {
                "id": 17,
                "name": "Pride Hotel Pune",
                "latitude": 18.5314,
                "longitude": 73.8803
              },
              {
                "id": 18,
                "name": "Sayaji Pune",
                "latitude": 18.5628,
                "longitude": 73.7744
              },
              {
                "id": 19,
                "name": "Royal Orchid Golden Suites",
                "latitude": 18.5204,
                "longitude": 73.8567
              },
              {
                "id": 20,
                "name": "O Hotel Pune",
                "latitude": 18.5196,
                "longitude": 73.8554
              }
            ],
  "ngos": [
            {
              "id": 1,
              "name": "IDEA Foundation",
              "latitude": 18.5074,
              "longitude": 73.8077
            },
            {
              "id": 2,
              "name": "Shelter Associates",
              "latitude": 18.5204,
              "longitude": 73.8567
            },
            {
              "id": 3,
              "name": "Sevavardhini",
              "latitude": 18.5362,
              "longitude": 73.8958
            },
            {
              "id": 4,
              "name": "Janhvi Foundation",
              "latitude": 18.5196,
              "longitude": 73.8554
            },
            {
              "id": 5,
              "name": "International Longevity Centre India (ILC-I)",
              "latitude": 18.5310,
              "longitude": 73.8490
            },
            {
              "id": 6,
              "name": "Community Aid and Sponsorship Program (CASP)",
              "latitude": 18.5642,
              "longitude": 73.9132
            },
            {
              "id": 7,
              "name": "Social Action for Manpower Creation (SAMC)",
              "latitude": 18.5018,
              "longitude": 73.8636
            },
            {
              "id": 8,
              "name": "Swadhar IDWC",
              "latitude": 18.5472,
              "longitude": 73.8264
            },
            {
              "id": 9,
              "name": "Society of Friends of Sassoon Hospitals (SOFOSH)",
              "latitude": 18.5314,
              "longitude": 73.8711
            },
            {
              "id": 10,
              "name": "Global Vision Cancer NGO",
              "latitude": 18.5089,
              "longitude": 73.8440
            },
            {
              "id": 11,
              "name": "Ishanya Foundation",
              "latitude": 18.4635,
              "longitude": 73.8258
            }
          ]
}